latitude,longitude,zip,city,state
40.7128,-74.006,10000,New York,New York
34.0522,-118.2437,90012,Los Angeles,California
41.8781,-87.6298,60604,Chicago,Illinois
29.7604,-95.3698,77002,Houston,Texas
33.4484,-112.074,85003,Phoenix,Arizona
